City_ID,City,Cloudiness,Country,Date,Humidity,Lat,Lng,Max Temp,Wind Speed
0,ponta do sol,40,PT,1513207800,77,32.67,-17.1,64.4,10.29
1,matagami,75,CA,1513208460,84,49.75,-77.63,-2.21,20.8
2,quesnel,1,CA,1513206000,96,53.0,-122.5,35.6,2.24
3,brae,92,GB,1513207200,86,60.4,-1.35,42.8,11.41
4,conceicao das alagoas,20,BR,1513206000,61,-19.91,-48.39,77.0,10.29
5,puerto ayora,20,EC,1513206000,64,-0.74,-90.35,75.2,13.87
6,tasiilaq,8,GL,1513209000,68,65.61,-37.64,26.6,6.93
7,hilo,75,US,1513205760,73,19.73,-155.09,73.4,14.99
8,rikitea,48,PF,1513209654,100,-23.12,-134.97,76.39,13.91
9,santa fe,1,US,1513209300,20,35.69,-105.94,46.4,9.17
10,hermanus,92,ZA,1513209654,98,-34.42,19.23,57.62,2.24
11,ribeira grande,92,PT,1513209655,100,38.52,-28.7,64.69,12.68
12,saint george,1,US,1513205760,14,37.1,-113.58,57.2,1.61
13,ostrovnoy,20,RU,1513209656,86,68.05,39.51,22.61,22.08
14,huicheng,75,CN,1513206000,82,23.04,116.29,60.8,4.47
15,port elizabeth,75,ZA,1513206000,82,-33.92,25.57,62.6,19.46
16,los llanos de aridane,75,ES,1513207800,59,28.66,-17.92,66.2,18.34
17,saint-philippe,0,RE,1513207800,73,-21.36,55.77,78.8,5.82
18,jamestown,90,US,1513209360,85,42.1,-79.24,17.6,6.93
19,lashio,0,MM,1513209658,97,22.93,97.75,49.84,1.9
20,omsukchan,24,RU,1513209659,57,62.53,155.8,-21.49,12.46
21,new norfolk,75,AU,1513206000,47,-42.78,147.06,75.2,14.99
22,hofn,56,IS,1513209660,100,64.25,-15.21,37.51,30.31
23,sola,64,VU,1513209661,99,-13.88,167.55,82.37,3.85
24,atuona,24,PF,1513209661,100,-9.8,-139.03,80.21,12.35
25,energeticheskiy,90,KZ,1513207800,92,43.43,77.02,21.2,6.71
26,rio cuarto,20,AR,1513206000,68,-33.13,-64.35,71.6,8.05
27,albany,90,US,1513208700,62,42.65,-73.76,21.2,10.29
28,punta arenas,75,CL,1513206000,62,-53.15,-70.92,51.8,19.46
29,lima,12,PE,1513209554,70,-12.04,-77.03,62.84,2.28
30,porto belo,75,BR,1513206000,73,-27.16,-48.55,75.2,14.99
31,columbia,1,US,1513208100,41,34.0,-81.03,44.6,5.82
32,tiksi,8,RU,1513209664,0,71.69,128.87,-47.59,2.39
33,vaini,40,TO,1513206000,65,-21.2,-175.2,80.6,2.24
34,upernavik,80,GL,1513209665,100,72.79,-56.15,23.02,4.85
35,ushuaia,75,AR,1513204260,44,-54.8,-68.3,59.0,12.75
36,butaritari,0,KI,1513209666,100,3.07,172.79,83.32,14.09
37,tuktoyaktuk,20,CA,1513206000,84,69.45,-133.04,-2.21,12.75
38,muros,90,ES,1513207800,93,42.78,-9.06,55.4,8.05
39,georgetown,40,GY,1513206000,88,6.8,-58.16,78.8,6.93
40,noumea,90,NC,1513207800,66,-22.28,166.46,84.2,12.75
41,pisco,40,PE,1513206000,77,-13.7,-76.22,69.8,21.92
42,hobart,75,AU,1513206000,47,-42.88,147.33,75.2,14.99
43,paine,0,CL,1513206000,44,-33.82,-70.75,75.2,14.99
44,kavaratti,56,IN,1513209668,100,10.57,72.64,78.82,7.09
45,axim,24,GH,1513209669,100,4.87,-2.24,81.65,8.55
46,chuy,24,UY,1513209669,77,-33.7,-53.46,73.46,13.98
47,fairbanks,40,US,1513205880,51,64.84,-147.72,41.0,4.7
48,carnarvon,0,AU,1513209670,85,-24.87,113.63,76.52,21.14
49,busselton,20,AU,1513209670,100,-33.65,115.33,65.36,5.82
50,san javier,0,ES,1513207800,46,37.81,-0.84,50.0,9.17
51,maxixe,68,MZ,1513209672,96,-23.86,35.35,77.78,13.58
52,caconda,92,AO,1513209673,99,-13.73,15.07,60.5,5.37
53,siyabuswa,0,ZA,1513209674,78,-25.11,29.04,60.82,2.13
54,cape town,75,ZA,1513206000,93,-33.93,18.42,60.8,1.12
55,chokurdakh,56,RU,1513209675,67,70.63,147.92,-14.34,4.25
56,tekeli,0,KZ,1513209675,50,44.83,78.82,-5.52,2.01
57,thompson,75,CA,1513207800,77,55.74,-97.86,3.2,3.36
58,tateyama,20,JP,1513207800,32,34.98,139.87,46.4,17.22
59,cherskiy,80,RU,1513209677,82,68.75,161.3,3.67,8.84
60,darnah,0,LY,1513209678,100,32.77,22.64,65.86,13.69
61,qaanaaq,80,GL,1513209680,91,77.48,-69.36,13.39,7.09
62,tamale,0,GH,1513209681,38,9.4,-0.84,80.93,7.87
63,nishihara,75,JP,1513209360,59,26.18,127.76,62.6,9.17
64,dikson,92,RU,1513209682,100,73.51,80.55,-7.63,22.15
65,bilibino,80,RU,1513209684,77,68.05,166.44,-13.12,3.4
66,eureka,1,US,1513208100,76,40.8,-124.16,57.2,4.7
67,esperance,56,AU,1513209685,83,-33.87,121.9,64.96,4.63
68,bluff,0,NZ,1513209686,100,-46.6,168.33,57.35,5.14
69,yellowknife,90,CA,1513206000,85,62.46,-114.35,15.8,6.93
70,mar del plata,75,AR,1513206000,82,-38.0,-57.56,66.2,3.36
71,kyra,32,RU,1513209688,67,49.58,111.98,-11.82,5.82
72,clyde river,75,CA,1513206720,77,70.47,-68.59,1.4,5.82
73,bambanglipuro,76,ID,1513209692,96,-7.95,110.28,73.46,3.8
74,provideniya,75,RU,1513207800,79,64.38,-173.3,24.8,22.37
75,qasigiannguit,64,GL,1513209000,85,68.82,-51.19,19.4,11.41
76,neyshabur,64,IR,1513209694,95,36.21,58.8,25.67,3.02
77,iquitos,20,PE,1513206000,66,-3.75,-73.25,86.0,2.24
78,hongjiang,100,CN,1513209695,100,27.11,110.0,37.24,4.59
79,tanout,12,NE,1513209696,44,14.97,8.89,70.4,12.64
80,avarua,75,CK,1513206000,78,-21.21,-159.78,82.4,8.05
81,anloga,36,GH,1513206000,94,5.79,0.9,80.6,6.93
82,constantine,20,DZ,1513207800,93,36.37,6.61,39.2,2.24
83,castro,0,BR,1513209700,88,-24.79,-50.01,65.41,6.38
84,bredasdorp,88,ZA,1513206000,82,-34.53,20.04,62.6,4.7
85,afua,88,BR,1513209701,92,-0.16,-50.39,82.51,11.45
86,broome,64,AU,1513206000,66,-17.97,122.23,87.8,14.99
87,lokachi,56,UA,1513209703,95,50.74,24.65,30.98,6.93
88,guerrero negro,0,MX,1513209703,42,27.98,-114.06,70.81,7.87
89,yar-sale,64,RU,1513209704,88,66.83,70.83,6.68,19.84
90,kaeo,12,NZ,1513209704,59,-35.1,173.78,73.82,14.36
91,aswan,0,EG,1513206000,55,24.09,32.91,62.6,6.93
92,sao domingos,76,BR,1513209705,69,-13.4,-46.32,75.49,6.6
93,saskylakh,64,RU,1513209706,52,71.92,114.08,-30.9,3.4
94,bethel,1,US,1513209360,45,41.37,-73.41,28.4,11.41
95,half moon bay,1,US,1513208100,47,37.46,-122.43,64.4,12.75
96,zarubino,0,RU,1513209711,100,42.63,131.09,11.72,11.3
97,dharchula,80,IN,1513209711,64,29.85,80.53,29.63,1.61
98,port hedland,0,AU,1513206000,79,-20.32,118.57,84.2,13.87
99,arlit,80,NE,1513209712,33,18.74,7.39,68.11,8.77
100,nabire,36,ID,1513209712,87,-3.37,135.48,74.77,0.6
101,cidreira,0,BR,1513209713,74,-30.18,-50.21,72.38,13.35
102,jawhar,0,SO,1513209713,85,2.78,45.5,68.69,5.41
103,blythe,1,US,1513205520,8,33.61,-114.6,71.6,4.7
104,mildura,80,AU,1513209714,47,-34.2,142.15,80.71,15.43
105,flin flon,90,CA,1513207380,85,54.77,-101.86,17.6,5.82
106,iquique,0,CL,1513206000,72,-20.22,-70.14,68.0,19.46
107,kodiak,40,US,1513205580,75,57.79,-152.41,42.8,9.17
108,biltine,0,TD,1513209716,35,14.53,20.92,71.93,12.12
109,camacha,40,PT,1513207800,82,33.08,-16.33,64.4,8.05
110,lebu,8,CL,1513209717,98,-37.62,-73.65,56.59,9.95
111,san cristobal,40,VE,1513206000,78,7.77,-72.22,78.8,3.36
112,tra vinh,80,VN,1513209718,100,9.93,106.35,74.27,4.03
113,mahebourg,75,MU,1513206000,88,-20.41,57.7,78.8,5.82
114,east london,92,ZA,1513209601,100,-33.02,27.91,67.07,29.19
115,coquimbo,0,CL,1513206000,77,-29.95,-71.34,64.4,6.93
116,obo,0,CF,1513209720,88,5.4,26.49,65.32,5.53
117,antofagasta,20,CL,1513206000,72,-23.65,-70.4,64.4,11.41
118,vitim,64,RU,1513209721,74,59.45,112.56,-11.59,4.36
119,kruisfontein,100,ZA,1513209721,91,-34.0,24.73,61.09,12.68
120,chimbarongo,0,CL,1513209722,71,-34.7,-71.05,56.27,0.83
121,inuvik,75,CA,1513208460,85,68.35,-133.72,10.4,5.82
122,torbay,90,CA,1513208340,100,47.67,-52.73,42.8,12.75
123,victoria,75,CA,1513206900,71,48.43,-123.37,51.8,6.93
124,lata,90,PT,1513206000,93,40.16,-8.33,55.4,5.82
125,nelson bay,0,AU,1513206000,38,-32.72,152.15,87.8,8.05
126,tara,68,RU,1513209724,78,56.89,74.37,5.24,5.53
127,lensk,48,RU,1513209724,66,60.73,114.93,-9.16,6.53
128,fethiye,0,TR,1513207200,81,36.62,29.12,50.0,8.05
129,dwarka,0,IN,1513209725,100,22.24,68.97,68.11,9.06
130,vila franca do campo,75,PT,1513207800,93,37.72,-25.43,60.8,6.76
131,hithadhoo,92,MV,1513209726,100,-0.6,73.08,81.65,8.55
132,aitape,12,PG,1513209726,99,-3.14,142.35,81.47,5.08
133,komsomolskiy,90,UZ,1513206000,69,40.43,71.72,33.8,1.79
134,belyy yar,40,RU,1513207800,92,53.6,91.39,12.2,4.47
135,kavieng,76,PG,1513209727,100,-2.57,150.8,82.1,13.31
136,muzhi,48,RU,1513209728,73,65.37,64.67,6.41,16.37
137,barrow,90,US,1513205580,77,71.29,-156.79,6.8,33.33
138,menongue,32,AO,1513209728,94,-14.66,17.69,62.17,4.52
139,hualmay,68,PE,1513209728,81,-11.1,-77.61,66.04,5.03
140,kez,92,RU,1513209729,84,57.9,53.72,24.05,22.26
141,bubaque,0,GW,1513209729,100,11.28,-15.83,78.46,2.13
142,aloleng,88,PH,1513209730,100,16.13,119.78,76.52,4.07
143,bengkulu,92,ID,1513209730,100,-3.8,102.27,73.64,11.34
144,hamilton,90,CA,1513208520,92,43.23,-79.95,19.4,8.05
145,severo-kurilsk,64,RU,1513209732,100,50.68,156.12,31.57,14.81
146,arraial do cabo,24,BR,1513209732,93,-22.97,-42.03,72.38,12.57
147,portland,40,US,1513205760,52,45.52,-122.68,50.0,9.17
148,kawalu,44,ID,1513209733,95,-7.38,108.21,69.19,2.35
149,kahului,40,US,1513205760,51,20.89,-156.47,80.6,16.11
150,labuhan,76,ID,1513209733,100,-6.88,112.21,80.3,7.31
151,caravelas,100,BR,1513209734,100,-17.71,-39.25,77.29,22.97
152,kapaa,90,US,1513205760,60,22.08,-159.32,75.2,18.34
153,tarakan,20,ID,1513209734,100,3.3,117.63,78.68,4.25
154,port alfred,92,ZA,1513209668,100,-33.59,26.89,63.47,18.39
155,moses lake,90,US,1513205580,94,47.13,-119.28,33.8,6.93
156,khatanga,20,RU,1513209735,0,71.97,102.5,-42.28,4.14
157,praia,40,CV,1513206000,64,14.92,-23.51,75.2,14.99
158,road town,1,VG,1513205580,78,18.42,-64.62,80.6,6.93
159,orsha,20,BY,1513209736,68,54.52,30.41,11.86,4.52
160,bahia honda,0,CU,1513209737,74,22.9,-83.16,67.25,4.74
161,nsoko,0,SZ,1513206000,78,-27.03,31.95,71.6,23.04
162,avesta,92,SE,1513207200,85,60.15,16.17,33.8,9.17
163,polson,64,US,1513209738,99,47.69,-114.16,21.62,1.5
164,san roque,0,ES,1513205400,87,36.21,-5.38,51.8,5.82
165,praia da vitoria,75,PT,1513206000,88,38.73,-27.07,62.6,13.69
166,bozhou,92,CN,1513209739,97,33.88,115.77,34.36,10.45
167,sysert,24,RU,1513207800,84,56.5,60.82,-0.41,4.47
168,dumbrava,76,RO,1513207800,87,44.88,26.18,42.8,1.12
169,lorengau,92,PG,1513209742,100,-2.02,147.27,80.57,11.45
170,villarrica,0,PY,1513209742,68,-25.75,-56.43,79.4,2.35
171,joshimath,68,IN,1513209743,92,30.57,79.57,6.82,1.34
172,manawar,0,IN,1513209743,84,22.23,75.08,59.51,2.35
173,malkangiri,0,IN,1513209744,94,18.35,81.9,59.51,3.4
174,pevek,88,RU,1513209745,86,69.7,170.31,17.84,24.76
175,touros,92,BR,1513209745,84,-5.2,-35.46,79.94,11.18
176,ahipara,0,NZ,1513209745,73,-35.17,173.17,70.54,16.22
177,shingu,40,JP,1513206000,65,33.73,135.98,41.0,14.99
178,namibe,0,AO,1513209500,100,-15.2,12.15,70.85,5.3
179,bolobo,88,CD,1513209746,100,-2.17,16.23,72.56,4.14
180,ler,0,SS,1513209747,86,8.3,30.14,68.42,3.91
181,grand gaube,75,MU,1513206000,88,-20.01,57.66,78.8,5.82
182,dunedin,20,NZ,1513209751,81,-45.87,170.5,59.96,6.31
183,fort-shevchenko,0,KZ,1513209751,100,44.51,50.26,28.19,18.16
184,chapais,90,CA,1513207740,70,49.78,-74.85,-2.21,12.75
185,ukiah,1,US,1513205760,27,39.15,-123.21,62.6,1.83
186,yumen,80,CN,1513209753,73,40.28,97.2,11.99,4.03
187,kalmunai,8,LK,1513209753,99,7.42,81.82,69.59,3.06
188,nanortalik,8,GL,1513209754,100,60.14,-45.24,27.52,29.42
189,gannan,48,CN,1513209755,43,47.91,123.5,-14.11,2.91
190,amuntai,100,ID,1513209755,98,-2.42,115.25,74.41,2.73
191,impfondo,48,CG,1513209755,88,1.64,18.07,74.63,3.58
192,rio grande,88,BR,1513209629,63,-32.03,-52.1,81.92,14.7
193,vanavara,48,RU,1513209756,70,60.34,102.28,-16.14,2.62
194,college,40,US,1513205880,51,64.86,-147.8,41.0,4.7
195,colares,75,PT,1513207800,100,38.8,-9.45,55.4,5.82
196,saldanha,12,ZA,1513206000,82,-33.01,17.94,60.8,1.12
197,high level,20,CA,1513206000,86,58.52,-117.14,28.4,2.24
198,wylie,1,US,1513206900,22,33.02,-96.54,73.4,11.41
199,arroyo,92,ES,1513209759,95,41.61,-4.8,45.74,12.91
200,port macquarie,0,AU,1513206000,54,-31.43,152.92,84.2,9.17
201,mount gambier,0,AU,1513209760,63,-37.83,140.77,67.25,6.26
202,pattoki,88,PK,1513209760,97,31.02,73.85,47.99,6.42
203,sydney,0,AU,1513206000,38,-33.87,151.21,89.6,17.22
204,berlevag,75,NO,1513205400,86,70.86,29.09,30.2,11.41
205,lipari,40,IT,1513205700,71,38.47,14.95,57.2,6.93
206,tawau,75,MY,1513206000,100,4.25,117.89,75.2,1.9
207,nokaneng,12,BW,1513209762,88,-19.67,22.27,69.77,4.52
208,kostomuksha,76,RU,1513209763,76,64.57,30.58,28.73,11.79
209,katsuura,20,JP,1513207800,32,35.13,140.3,41.0,17.22
210,ancud,92,CL,1513209765,98,-41.87,-73.82,55.82,11.18
211,zvishavane,24,ZW,1513209765,86,-20.33,30.07,67.97,4.81
212,humberto de campos,88,BR,1513209766,91,-2.6,-43.46,81.65,14.81
213,vao,68,NC,1513209766,100,-22.67,167.48,76.97,12.91
214,port lincoln,36,AU,1513209767,90,-34.73,135.87,64.73,10.45
215,evensk,44,RU,1513209767,100,61.95,159.23,-3.76,17.49
216,coos bay,1,US,1513205760,44,43.37,-124.22,60.8,3.36
217,santiago,0,CL,1513206000,44,-33.46,-70.65,75.2,14.99
218,igrim,80,RU,1513209768,82,63.19,64.42,15.32,10.85
219,mangai,92,CD,1513209769,100,-4.05,19.53,71.66,2.39
220,iqaluit,75,CA,1513206000,55,63.75,-68.51,10.4,4.7
221,shieli,0,KZ,1513209769,75,44.17,66.75,5.69,5.26
222,sungairaya,20,ID,1513209770,99,0.7,108.9,74.72,3.58
223,waipawa,76,NZ,1513207800,63,-41.41,175.52,66.2,18.34
224,tura,0,IN,1513209770,86,25.52,90.22,57.31,3.06
225,muisne,92,EC,1513209771,80,0.6,-80.03,77.42,8.32
226,umm kaddadah,0,SD,1513209771,50,13.6,26.69,65.54,10.67
227,byron bay,0,AU,1513206000,61,-28.65,153.62,77.0,5.82
228,ust-tsilma,92,RU,1513209771,79,65.44,52.15,31.25,11.56
229,smoky lake,0,CA,1513209772,83,54.12,-112.47,31.34,17.34
230,quatre cocos,75,MU,1513206000,88,-20.21,57.76,78.8,5.82
231,sharan,92,RU,1513209772,88,54.82,54.0,21.08,16.89
232,mandalgovi,64,MN,1513209773,76,45.76,106.27,2.09,9.66
233,norman wells,40,CA,1513206000,84,65.28,-126.83,8.6,5.82
234,namie,75,JP,1513206000,59,37.48,141.0,33.8,14.99
235,kieta,64,PG,1513209774,86,-6.22,155.63,86.11,7.09
236,pucallpa,40,PE,1513206000,66,-8.38,-74.55,87.8,2.24
237,vardo,75,NO,1513205400,92,70.37,31.11,26.6,14.99
238,goderich,92,CA,1513209774,100,43.75,-81.72,20.32,3.36
239,naze,75,JP,1513206000,58,28.37,129.48,57.2,18.34
240,madras,90,US,1513209360,92,44.63,-121.13,23.0,3.36
241,oktyabrskoye,56,RU,1513209776,86,43.06,44.74,28.69,1.61
242,tiguion,68,PH,1513209776,100,13.33,121.86,79.99,24.72
243,ketchikan,90,US,1513208220,76,55.34,-131.65,50.0,9.17
244,coihaique,64,CL,1513209777,87,-45.58,-72.07,52.13,7.38
245,bambous virieux,75,MU,1513206000,88,-20.34,57.76,78.8,5.82
246,beyneu,0,KZ,1513209777,85,45.32,55.2,11.63,6.82
247,bud,90,US,1513208100,93,39.45,-86.18,46.4,17.22
248,wajima,75,JP,1513206000,86,37.4,136.9,33.8,4.7
249,sao filipe,68,CV,1513209779,99,14.9,-24.5,74.36,17.11
250,santa marta,40,CO,1513206000,62,11.24,-74.2,86.0,6.93
251,diamantino,68,BR,1513209779,90,-14.41,-56.45,76.88,2.39
252,suntar,56,RU,1513209780,69,62.14,117.63,-15.42,4.29
253,ust-nera,48,RU,1513209780,74,64.57,143.2,-26.8,1.83
254,aguimes,40,ES,1513207800,63,27.91,-15.45,64.4,19.46
255,pully,75,CH,1513207200,87,46.51,6.66,42.8,21.92
256,cap malheureux,75,MU,1513206000,88,-19.98,57.61,78.8,5.82
257,booue,48,GA,1513209782,98,-0.09,11.94,72.52,2.35
258,bronnoysund,0,NO,1513209000,58,65.46,12.2,26.6,10.29
259,saint anthony,90,US,1513209000,73,45.02,-93.22,24.8,10.29
260,atambua,8,ID,1513209783,86,-9.11,124.89,85.34,3.62
261,necochea,100,AR,1513209783,100,-38.55,-58.74,61.49,6.64
262,merauke,0,ID,1513209784,81,-8.47,140.33,86.47,11.56
263,hami,48,CN,1513209784,74,42.8,93.45,12.67,1.28
264,bathsheba,20,BB,1513206000,83,13.22,-59.52,80.6,17.22
265,vidim,56,RU,1513209785,75,56.41,103.11,2.09,4.74
266,betanzos,40,ES,1513207800,93,43.28,-8.21,55.4,4.7
267,wanning,100,CN,1513209785,100,18.8,110.4,74.27,11.86
268,lalmohan,0,BD,1513209786,86,22.34,90.74,66.89,5.53
269,daru,92,PG,1513209787,83,-9.08,143.21,84.17,9.78
270,marsh harbour,0,BS,1513209787,100,26.54,-77.06,70.76,9.44
271,tolaga bay,100,NZ,1513209788,99,-38.37,178.3,58.66,15.88
272,almeirim,88,BR,1513209788,89,-1.52,-52.58,80.12,3.51
273,high rock,20,BS,1513206000,63,26.62,-78.28,62.6,9.28
274,asau,90,RO,1513207800,93,46.43,26.4,39.2,3.36
275,karratha,0,AU,1513209783,68,-20.74,116.85,82.1,5.08
276,takoradi,20,GH,1513209789,100,4.88,-1.76,79.72,5.3
277,natitingou,0,BJ,1513209790,42,10.3,1.38,72.11,5.86
278,petauke,92,ZM,1513209790,98,-14.24,31.33,67.57,1.34
279,sedro-woolley,1,US,1513206900,76,48.5,-122.24,48.2,6.93
280,klaksvik,64,FO,1513209000,86,62.23,-6.59,39.2,5.82
281,talaya,36,RU,1513209790,56,61.38,152.75,-21.22,12.08
282,srednekolymsk,80,RU,1513209791,71,67.45,153.68,-15.87,5.53
283,cameron park,1,US,1513208400,33,38.67,-120.99,60.8,3.02
284,camargo,92,ES,1513207800,100,43.41,-3.88,55.4,11.41
285,yerbogachen,56,RU,1513209792,81,61.28,108.01,-13.3,4.29
286,panama city,1,US,1513205760,71,30.16,-85.66,51.8,5.82
287,ilanskiy,56,RU,1513209793,82,56.24,96.06,7.94,10.67
288,sorland,56,NO,1513209793,100,67.67,12.69,39.31,6.82
289,sur,0,OM,1513209793,100,22.57,59.53,68.33,8.05
290,tirukkoyilur,100,IN,1513209794,95,11.95,79.2,72.65,3.74
291,la ronge,90,CA,1513206000,92,55.1,-105.28,23.0,4.7
292,roma,20,IT,1513207200,76,41.89,12.48,53.6,6.93
293,sarai,92,RU,1513209795,100,53.75,41.02,32.74,3.74
294,simian,8,RO,1513209795,98,44.61,22.71,41.42,7.38
295,rawson,0,AR,1513209796,54,-43.3,-65.1,71.84,10.4
296,nagorsk,92,RU,1513209796,92,59.32,50.81,31.25,21.36
297,waddan,20,LY,1513209796,76,29.16,16.14,37.24,2.73
298,cedral,0,MX,1513209797,40,23.8,-100.73,53.48,3.36
299,teeli,20,RU,1513209797,49,51.03,90.23,-20.5,2.84
300,maragogi,24,BR,1513209797,95,-9.01,-35.22,74.59,6.64
301,labuan,92,ID,1513209797,100,-6.38,105.83,77.11,5.64
302,beringovskiy,0,RU,1513209798,100,63.05,179.32,-5.2,3.8
303,shambu,0,ET,1513209798,58,9.57,37.1,37.28,2.35
304,parsabad,92,IR,1513209799,98,39.65,47.92,42.77,3.85
305,sioux lookout,20,CA,1513206000,83,50.1,-91.92,6.8,3.51
306,deputatskiy,32,RU,1513209799,47,69.3,139.9,-29.95,2.84
307,ippy,0,CF,1513209800,61,6.27,21.22,66.53,6.31
308,sao joao da barra,64,BR,1513209801,100,-21.64,-41.05,74.81,11.07
309,mahajanga,40,MG,1513206000,83,-15.72,46.32,78.8,2.24
310,sabha,20,LY,1513209802,77,27.04,14.43,43.4,3.29
311,ozinki,92,RU,1513209802,96,51.2,49.73,29.54,17.67
312,molokovo,20,RU,1513209802,90,58.17,36.76,27.07,6.87
313,barsovo,56,RU,1513207800,91,61.17,73.17,-0.41,6.71
314,ardakan,0,IR,1513206000,31,32.31,54.02,33.8,2.24
315,rosetta,40,EG,1513206000,68,31.4,30.42,64.4,8.05
316,termini imerese,40,IT,1513207200,62,37.98,13.7,59.0,20.8
317,faanui,32,PF,1513209805,100,-16.48,-151.75,82.69,1.05
318,havelock,1,US,1513205880,47,34.88,-76.9,39.2,4.7
319,oistins,20,BB,1513206000,83,13.07,-59.53,80.6,17.22
320,hasaki,20,JP,1513207800,44,35.73,140.83,39.2,10.29
321,longyearbyen,75,SJ,1513209000,90,78.22,15.64,32.0,11.41
322,ingham,0,AU,1513209806,87,-18.65,146.17,81.61,9.44
323,vaasa,92,FI,1513209000,96,63.1,21.62,33.8,6.93
324,cabo san lucas,90,MX,1513205640,68,22.89,-109.91,71.6,3.36
325,isangel,80,VU,1513209807,98,-19.55,169.27,80.62,11.3
326,araioses,68,BR,1513209808,84,-2.89,-41.9,80.17,11.68
327,vila velha,75,BR,1513206000,73,-20.33,-40.29,77.0,9.17
328,pedasi,68,PA,1513209808,100,7.53,-80.03,80.57,18.72
329,codrington,36,AU,1513209808,88,-38.27,141.97,62.71,12.41
330,manjacaze,8,MZ,1513209808,75,-24.71,33.88,78.86,11.3
331,kloulklubed,75,PW,1513209000,83,7.04,134.26,82.4,5.82
332,wewak,75,PG,1513206000,79,-3.55,143.63,84.2,4.7
333,honningsvag,75,NO,1513205400,86,70.98,25.97,30.2,11.41
334,senovo,48,SI,1513207800,93,46.02,15.48,35.6,2.24
335,meulaboh,92,ID,1513209811,100,4.14,96.13,75.22,6.38
336,anadyr,90,RU,1513207800,77,64.75,177.48,-0.41,11.18
337,silver city,1,US,1513209300,22,32.77,-108.28,55.4,2.01
338,grand forks,90,US,1513209300,85,47.93,-97.03,21.2,14.99
339,teya,76,RU,1513209812,74,60.38,92.63,-3.31,3.13
340,banda aceh,92,ID,1513209813,100,5.56,95.32,74.14,2.01
341,ilulissat,64,GL,1513209000,85,69.22,-51.1,19.4,11.41
342,leningradskiy,92,RU,1513209814,94,69.38,178.42,23.6,27.67
343,gwadar,0,PK,1513209814,89,25.12,62.33,56.14,11.68
344,bhinga,0,IN,1513209814,85,27.72,81.93,52.31,6.53
345,aykhal,64,RU,1513209815,69,66.0,111.5,-24.37,3.02
346,lompoc,1,US,1513208100,11,34.64,-120.46,80.6,8.05
347,gien,92,FR,1513209815,92,47.69,2.63,46.19,24.99
348,laguna,1,US,1513208100,36,38.42,-121.42,60.8,3.02
349,poum,92,NC,1513209815,100,-20.23,164.02,77.69,10.4
350,borujerd,0,IR,1513205400,64,33.9,48.75,33.8,9.17
351,ningbo,90,CN,1513206000,100,29.88,121.55,46.4,2.24
352,lamesa,1,US,1513206900,16,32.74,-101.95,64.4,6.93
353,cloppenburg,75,DE,1513209000,93,52.85,8.03,39.2,18.34
354,saint-joseph,0,RE,1513207800,73,-21.37,55.62,78.8,5.82
355,lasa,90,IT,1513207200,73,46.62,10.7,23.0,1.12
356,glendive,90,US,1513209300,69,47.11,-104.71,37.4,11.41
357,aklavik,90,CA,1513208460,84,68.22,-135.01,10.4,5.82
358,pangody,48,RU,1513209819,81,65.85,74.49,1.55,15.88
359,lavrentiya,68,RU,1513209819,100,65.58,-171.0,27.61,16.71
360,walvis bay,0,NA,1513206000,82,-22.96,14.51,55.4,5.82
361,mayskiy,0,RU,1513207800,81,47.69,40.1,35.6,6.71
362,ambilobe,76,MG,1513209820,100,-13.2,49.05,72.92,4.41
363,kampot,20,KH,1513209821,93,10.62,104.18,71.12,0.27
364,matongo,0,TZ,1513209821,86,-2.38,34.08,58.25,3.4
365,barraute,40,CA,1513206000,77,48.43,-77.63,-2.21,12.75
366,muramatsu,75,JP,1513206000,74,37.68,139.18,37.4,19.46
367,palembang,20,ID,1513206000,94,-2.92,104.75,75.2,3.36
368,suluq,0,LY,1513209823,83,31.67,20.25,38.27,3.13
369,laiyang,64,CN,1513209824,78,36.98,120.71,16.31,2.62
370,mount isa,0,AU,1513206000,38,-20.73,139.5,91.4,5.82
371,tiznit,0,MA,1513209824,67,29.58,-9.5,37.46,3.74
372,saint andrews,1,US,1513209360,41,34.05,-81.13,44.6,5.82
373,port-cartier,90,CA,1513206000,92,50.03,-66.87,30.2,11.41
374,batagay-alyta,12,RU,1513209825,0,67.8,130.41,-48.9,2.62
375,paracuru,40,BR,1513206000,69,-3.41,-39.03,82.4,9.17
376,namatanai,80,PG,1513209826,100,-3.67,152.43,82.37,15.7
377,narsaq,0,GL,1513209000,52,60.92,-46.05,15.8,8.1
378,inta,80,RU,1513209827,83,66.03,60.17,21.17,7.76
379,uniao,0,BR,1513206000,62,-4.59,-42.86,86.0,6.93
380,emba,20,CY,1513207800,71,34.81,32.42,53.6,10.29
381,belmonte,75,BR,1513206000,100,-15.86,-38.88,75.2,3.36
382,port blair,36,IN,1513209828,100,11.67,92.75,82.24,7.87
383,haines junction,44,CA,1513209829,82,60.75,-137.51,19.96,2.51
384,faranah,32,GN,1513209829,74,10.04,-10.74,72.83,5.26
385,alofi,92,NU,1513206000,65,-19.06,-169.92,82.4,11.41
386,rocha,56,UY,1513209830,34,-34.48,-54.33,80.21,10.4
387,micheweni,0,TZ,1513209830,99,-4.97,39.83,82.06,12.35
388,mackay,40,AU,1513206000,69,-21.15,149.2,82.4,12.75
389,sao jose da coroa grande,24,BR,1513209831,95,-8.9,-35.15,74.59,6.64
390,mwinilunga,92,ZM,1513209831,99,-11.74,24.43,62.57,3.02
391,san antonio,1,US,1513206900,41,29.42,-98.49,60.8,3.36
392,sinegorye,32,RU,1513209832,39,62.08,150.48,-27.7,2.01
393,taoudenni,0,ML,1513209833,50,22.68,-3.98,50.06,6.64
394,svetlogorsk,56,BY,1513209833,71,52.63,29.73,18.02,2.91
395,baglung,0,NP,1513209834,73,28.27,83.59,41.74,2.73
396,egvekinot,88,RU,1513209834,96,66.32,-179.17,21.67,2.35
397,torata,36,PE,1513209834,65,-17.08,-70.84,49.25,2.01
398,zile,0,TR,1513207200,86,40.3,35.89,33.8,3.36
399,vostok,80,RU,1513209835,72,46.49,135.88,0.11,2.91
400,margate,40,GB,1513209000,86,51.38,1.39,41.0,18.34
401,petropavlovsk-kamchatskiy,80,RU,1513207800,57,53.05,158.65,23.0,8.95
402,lagoa,88,PT,1513209836,100,39.05,-27.98,64.69,14.58
403,san joaquin,40,VE,1513206000,57,10.26,-67.79,80.6,2.91
404,santa rosa,75,PH,1513206000,94,14.31,121.11,78.8,20.24
405,tuatapere,32,NZ,1513209838,93,-46.13,167.68,60.37,0.56
406,marovoay,40,MG,1513206000,83,-16.1,46.63,78.8,2.24
407,bonthe,0,SL,1513209839,83,7.53,-12.51,79.58,4.25
408,bonavista,92,CA,1513209839,88,48.65,-53.11,42.68,33.67
409,civitanova marche,0,IT,1513205400,81,43.31,13.72,42.8,5.82
410,talnakh,88,RU,1513209840,91,69.49,88.4,-15.46,7.31
411,dudinka,92,RU,1513209840,73,69.41,86.18,-10.65,20.36
412,borba,0,BR,1513209840,93,-4.39,-59.59,78.95,2.01
413,auki,76,SB,1513209841,97,-8.77,160.7,83.09,11.34
414,burnie,8,AU,1513209841,93,-41.07,145.92,64.91,18.16
415,rio gallegos,75,AR,1513206000,29,-51.62,-69.22,66.2,20.8
416,hovd,12,MN,1513209842,45,48.01,91.64,-10.15,3.13
417,cabinda,8,AO,1513209842,98,-5.55,12.2,78.77,8.84
418,itoman,75,JP,1513209360,59,26.12,127.67,62.6,9.17
419,puri,90,IN,1513207800,100,19.8,85.85,69.8,3.51
420,malgrat de mar,0,ES,1513207800,70,41.65,2.74,48.2,28.41
421,christchurch,68,NZ,1513207800,67,-43.53,172.63,62.6,14.99
422,lexington,90,US,1513208100,35,37.99,-84.48,42.8,16.11
423,sibolga,48,ID,1513209844,100,1.74,98.78,67.97,1.39
424,morant bay,75,JM,1513206000,94,17.88,-76.41,77.0,10.29
425,hihya,92,EG,1513207800,82,30.67,31.59,57.2,1.12
426,dingle,68,PH,1513209846,96,11.0,122.67,76.79,9.06
427,salinopolis,92,BR,1513209846,95,-0.61,-47.36,81.79,12.35
428,zyryanskoye,92,RU,1513209846,83,56.83,86.63,8.21,9.06
429,fortuna,1,US,1513208100,76,40.6,-124.16,57.2,4.7
430,talavera,75,PH,1513206000,83,15.62,120.93,75.2,2.24
431,myitkyina,0,MM,1513209847,97,25.38,97.4,57.8,1.72
432,kenora,20,CA,1513208100,92,49.82,-94.43,10.4,4.7
433,verkhniy avzyan,0,RU,1513209848,59,53.53,57.54,-13.12,2.84
434,aripuana,20,BR,1513209849,90,-9.17,-60.63,78.41,2.39
435,sinnamary,88,GF,1513209849,100,5.38,-52.95,78.95,7.94
436,zhigansk,68,RU,1513209849,40,66.77,123.37,-25.59,4.29
437,hillcrest heights,75,US,1513207560,31,38.83,-76.96,35.6,4.7
438,bereznik,80,RU,1513209850,80,62.86,42.71,27.34,11.79
439,north branch,90,US,1513209000,73,45.51,-92.98,24.8,10.29
440,bristol,20,GB,1513209000,80,51.46,-2.6,42.8,25.28
441,nagaur,0,IN,1513209851,67,27.2,73.73,43.13,6.93
442,san patricio,40,MX,1513204860,69,19.22,-104.7,82.4,6.93
443,nevel,0,RU,1513209852,94,56.02,29.93,25.13,5.08
444,kapit,88,MY,1513209852,98,2.02,112.93,72.56,2.62
445,isla mujeres,5,MX,1513205400,64,21.23,-86.73,73.4,2.24
446,gubkinskiy,44,RU,1513209853,69,64.43,76.5,-1.02,12.41
447,oranjestad,20,AW,1513206000,78,12.52,-70.03,80.6,9.17
448,fare,20,PF,1513209854,100,-16.7,-151.02,82.01,6.15
449,sitka,90,US,1513205580,93,57.05,-135.33,48.2,14.99
450,libreville,40,GA,1513206000,83,0.39,9.45,82.4,6.93
451,oktyabrskiy,88,RU,1513209855,90,54.48,53.47,21.71,17.9
452,jian,100,CN,1513209855,100,27.12,114.98,45.92,3.91
453,salvador,75,BR,1513206000,88,-12.97,-38.51,77.0,5.82
454,obama,88,JP,1513209857,83,35.5,135.75,42.14,12.91
455,datong,64,CN,1513209857,77,40.09,113.29,8.3,2.62
456,suleja,0,NG,1513209857,35,9.18,7.18,78.5,9.95
457,elizabeth city,1,US,1513208700,100,36.29,-76.25,39.2,13.87
458,beni,0,CD,1513209858,85,0.5,29.47,58.97,3.06
459,jam sahib,0,PK,1513206000,87,26.3,68.63,46.4,9.17
460,ribeirao pires,90,BR,1513206000,77,-23.71,-46.41,68.0,6.93
461,lubbock,1,US,1513206900,13,33.58,-101.86,62.6,11.41
462,sfantu gheorghe,88,RO,1513207800,87,44.65,26.83,42.8,1.12
463,agnibilekrou,20,CI,1513209860,85,7.13,-3.2,74.77,4.85
464,nome,90,US,1513205700,91,64.5,-165.41,32.0,6.93
465,taveta,20,KE,1513206000,68,-3.4,37.67,71.6,10.29
466,neiva,24,CO,1513209615,94,2.93,-75.28,66.17,1.57
467,havre-saint-pierre,90,CA,1513208220,100,50.23,-63.6,39.2,20.8
468,makakilo city,75,US,1513205820,50,21.35,-158.09,78.8,12.75
469,shunyi,48,CN,1513207800,49,40.12,116.65,23.0,2.24
470,artyom,90,AZ,1513207800,81,40.47,50.33,44.6,10.29
471,broken hill,100,AU,1513209866,31,-31.95,141.43,87.64,18.05
472,manggar,36,ID,1513209866,100,-2.88,108.27,77.42,4.74
473,athens,20,GR,1513207200,87,37.98,23.72,55.4,7.38
474,cabedelo,20,BR,1513206000,78,-6.98,-34.83,77.0,4.7
475,carutapera,68,BR,1513209868,82,-1.2,-46.02,81.02,8.95
476,urupes,0,BR,1513206000,48,-21.2,-49.29,84.2,9.17
477,cranbrook,20,CA,1513206000,79,49.5,-115.77,21.2,2.24
478,gorele,40,TR,1513207200,75,41.03,39.0,46.4,3.36
479,mwanza,0,TZ,1513209650,84,-2.52,32.9,69.95,3.62
480,ariquemes,76,BR,1513209871,91,-9.91,-63.04,75.76,3.8
481,ugoofaaru,0,MV,1513209871,100,5.67,73.0,81.61,4.29
482,moron,90,AR,1513207500,69,-34.65,-58.62,73.4,10.29
483,salalah,0,OM,1513205400,10,17.02,54.09,69.8,12.75
484,clinton,90,US,1513208820,92,42.59,-82.92,24.8,6.93
485,porto novo,75,CV,1513206000,73,17.02,-25.06,73.4,17.22
486,ahrensburg,75,DE,1513209000,93,53.68,10.25,35.6,16.11
487,fiche,0,ET,1513209874,67,9.8,38.73,30.76,4.03
488,gorontalo,88,ID,1513209874,99,0.54,123.06,73.64,1.72
489,srikakulam,20,IN,1513209875,98,18.3,83.9,65.09,2.8
490,westport,1,US,1513209360,45,41.14,-73.36,28.4,11.41
491,tarko-sale,44,RU,1513209876,73,64.92,77.78,-2.14,12.12
492,dali,0,CN,1513209876,100,25.7,100.18,33.19,1.83
493,pasighat,0,IN,1513209877,86,28.07,95.33,50.29,2.24
494,mehamn,75,NO,1513205400,86,71.04,27.85,30.2,11.41
495,nizwa,0,OM,1513209878,68,22.93,57.53,47.77,2.01
496,nouadhibou,0,MR,1513206000,67,20.93,-17.03,62.6,20.8
497,yola,0,NG,1513209880,74,9.2,12.48,63.74,2.51
498,cockburn town,80,TC,1513209877,100,21.46,-71.14,76.07,15.21
499,ansermanuevo,40,CO,1513206000,61,4.8,-76.0,78.8,2.24
500,tomigusuku,75,JP,1513209360,59,26.18,127.67,62.6,9.17
501,sandnessjoen,0,NO,1513209000,58,66.02,12.63,26.6,10.29
502,mundo nuevo,0,MX,1513209882,100,18.7,-95.5,67.12,3.36
503,kidal,88,ML,1513209882,77,18.44,1.41,65.18,11.41
504,lander,90,US,1513208040,100,42.83,-108.73,30.2,4.7
505,skagen,64,DK,1513209883,100,57.72,10.58,41.15,15.66
506,kupang,20,ID,1513206000,94,-10.17,123.58,82.4,4.52
507,lazaro cardenas,0,MX,1513209877,83,17.96,-102.2,79.49,5.3
508,mitsamiouli,20,KM,1513206000,83,-11.38,43.28,77.0,2.24
509,harper,0,LR,1513209885,100,4.38,-7.72,81.79,7.09
510,mayo,40,US,1513209000,34,38.89,-76.51,33.8,4.7
511,kaihua,92,CN,1513209886,98,23.37,104.28,50.69,3.74
